{
  "VirtualTime": "2026-05-24T12:28:26.3978129+03:00",
  "GlobalSpeedMultiplier": 1,
  "ActiveFlights": [
    {
      "Id": 129,
      "FlightNumber": "RO301",
      "OriginName": "Bucharest",
      "DestName": "Frankfurt",
      "OriginLat": 44.5722,
      "OriginLng": 26.1022,
      "DestLat": 50.0379,
      "DestLng": 8.5622,
      "CurrentLat": 47.09054573005637,
      "CurrentLng": 18.02056652117959,
      "Status": "Airborne",
      "TotalTimeHours": 1.6120902112630604,
      "DepartureTime": "2026-05-24T11:43:51.3978129+03:00",
      "Progress": 0.46075447427710453,
      "TakeoffCleared": true,
      "LandingCleared": false,
      "ActualDepartureTime": "2026-05-24T11:43:52.3978129+03:00",
      "HoldingStartTime": null
    },
    {
      "Id": 130,
      "FlightNumber": "AF108",
      "OriginName": "Paris",
      "DestName": "Bucharest",
      "OriginLat": 49.0097,
      "OriginLng": 2.5479,
      "DestLat": 44.5722,
      "DestLng": 26.1022,
      "CurrentLat": 47.41044936047092,
      "CurrentLng": 11.03674041434588,
      "Status": "Airborne",
      "TotalTimeHours": 2.0571592176528375,
      "DepartureTime": "2026-05-24T11:43:56.3978129+03:00",
      "Progress": 0.3603945103164127,
      "TakeoffCleared": true,
      "LandingCleared": false,
      "ActualDepartureTime": "2026-05-24T11:43:57.3978129+03:00",
      "HoldingStartTime": null
    },
    {
      "Id": 131,
      "FlightNumber": "KLM99",
      "OriginName": "Bucharest",
      "DestName": "Amsterdam",
      "OriginLat": 44.5722,
      "OriginLng": 26.1022,
      "DestLat": 52.3105,
      "DestLng": 4.7683,
      "CurrentLat": 47.46426961625592,
      "CurrentLng": 18.128985729909385,
      "Status": "Airborne",
      "TotalTimeHours": 1.9822450162022773,
      "DepartureTime": "2026-05-24T11:43:58.3978129+03:00",
      "Progress": 0.37373449158806477,
      "TakeoffCleared": true,
      "LandingCleared": false,
      "ActualDepartureTime": "2026-05-24T11:43:59.3978129+03:00",
      "HoldingStartTime": null
    },
    {
      "Id": 132,
      "FlightNumber": "BA402",
      "OriginName": "Bucharest",
      "DestName": "Rome",
      "OriginLat": 44.5722,
      "OriginLng": 26.1022,
      "DestLat": 41.7999,
      "DestLng": 12.2462,
      "CurrentLat": 44.5722,
      "CurrentLng": 26.1022,
      "Status": "Airborne",
      "TotalTimeHours": 1.292548128657566,
      "DepartureTime": "2026-05-24T09:43:18.3283222",
      "Progress": 0,
      "TakeoffCleared": false,
      "LandingCleared": false,
      "ActualDepartureTime": null,
      "HoldingStartTime": null
    },
    {
      "Id": 133,
      "FlightNumber": "RO381",
      "OriginName": "Bucharest",
      "DestName": "Paris",
      "OriginLat": 44.5722,
      "OriginLng": 26.1022,
      "DestLat": 49.0097,
      "DestLng": 2.5479,
      "CurrentLat": 45.180981809577204,
      "CurrentLng": 22.870779295250877,
      "Status": "Airborne",
      "TotalTimeHours": 2.0571592176528375,
      "DepartureTime": "2026-05-24T12:11:29.3978129+03:00",
      "Progress": 0.13719026694697461,
      "TakeoffCleared": true,
      "LandingCleared": false,
      "ActualDepartureTime": "2026-05-24T12:11:30.3978129+03:00",
      "HoldingStartTime": null
    },
    {
      "Id": 134,
      "FlightNumber": "LH202",
      "OriginName": "Bucharest",
      "DestName": "Berlin",
      "OriginLat": 44.5722,
      "OriginLng": 26.1022,
      "DestLat": 52.3667,
      "DestLng": 13.5033,
      "CurrentLat": 48.25689000457436,
      "CurrentLng": 20.14632843689373,
      "Status": "Airborne",
      "TotalTimeHours": 1.4078993813149947,
      "DepartureTime": "2026-05-24T11:48:29.3978129+03:00",
      "Progress": 0.47272948932893116,
      "TakeoffCleared": true,
      "LandingCleared": false,
      "ActualDepartureTime": "2026-05-24T11:48:30.3978129+03:00",
      "HoldingStartTime": null
    },
    {
      "Id": 135,
      "FlightNumber": "W6314",
      "OriginName": "Bucharest",
      "DestName": "London",
      "OriginLat": 44.5722,
      "OriginLng": 26.1022,
      "DestLat": 51.47,
      "DestLng": -0.4543,
      "CurrentLat": 45.403952960157184,
      "CurrentLng": 22.899954720865452,
      "Status": "Airborne",
      "TotalTimeHours": 2.338189921826499,
      "DepartureTime": "2026-05-24T12:11:30.3978129+03:00",
      "Progress": 0.12058235381675107,
      "TakeoffCleared": true,
      "LandingCleared": false,
      "ActualDepartureTime": "2026-05-24T12:11:31.3978129+03:00",
      "HoldingStartTime": null
    },
    {
      "Id": 136,
      "FlightNumber": "RO361",
      "OriginName": "Bucharest",
      "DestName": "Amsterdam",
      "OriginLat": 44.5722,
      "OriginLng": 26.1022,
      "DestLat": 52.3105,
      "DestLng": 4.7683,
      "CurrentLat": 44.5722,
      "CurrentLng": 26.1022,
      "Status": "Awaiting Takeoff Clearance",
      "TotalTimeHours": 1.9822450162022773,
      "DepartureTime": "2026-05-24T12:28:26.3978129+03:00",
      "Progress": 0,
      "TakeoffCleared": false,
      "LandingCleared": false,
      "ActualDepartureTime": null,
      "HoldingStartTime": null
    },
    {
      "Id": 137,
      "FlightNumber": "IB311",
      "OriginName": "Bucharest",
      "DestName": "Madrid",
      "OriginLat": 44.5722,
      "OriginLng": 26.1022,
      "DestLat": 40.4983,
      "DestLng": -3.5676,
      "CurrentLat": 44.5722,
      "CurrentLng": 26.1022,
      "Status": "Scheduled",
      "TotalTimeHours": 2.7318921795458304,
      "DepartureTime": "2026-05-24T13:13:18.3283222",
      "Progress": 0,
      "TakeoffCleared": false,
      "LandingCleared": false,
      "ActualDepartureTime": null,
      "HoldingStartTime": null
    },
    {
      "Id": 138,
      "FlightNumber": "FR102",
      "OriginName": "Bucharest",
      "DestName": "Rome",
      "OriginLat": 44.5722,
      "OriginLng": 26.1022,
      "DestLat": 41.7999,
      "DestLng": 12.2462,
      "CurrentLat": 44.5722,
      "CurrentLng": 26.1022,
      "Status": "Scheduled",
      "TotalTimeHours": 1.292548128657566,
      "DepartureTime": "2026-05-24T13:43:18.3283222",
      "Progress": 0,
      "TakeoffCleared": false,
      "LandingCleared": false,
      "ActualDepartureTime": null,
      "HoldingStartTime": null
    },
    {
      "Id": 139,
      "FlightNumber": "RO315",
      "OriginName": "Bucharest",
      "DestName": "Paris",
      "OriginLat": 44.5722,
      "OriginLng": 26.1022,
      "DestLat": 49.0097,
      "DestLng": 2.5479,
      "CurrentLat": 44.5722,
      "CurrentLng": 26.1022,
      "Status": "Scheduled",
      "TotalTimeHours": 2.0571592176528375,
      "DepartureTime": "2026-05-25T13:43:18.3283222",
      "Progress": 0,
      "TakeoffCleared": false,
      "LandingCleared": false,
      "ActualDepartureTime": null,
      "HoldingStartTime": null
    },
    {
      "Id": 140,
      "FlightNumber": "RO391",
      "OriginName": "Bucharest",
      "DestName": "London",
      "OriginLat": 44.5722,
      "OriginLng": 26.1022,
      "DestLat": 51.47,
      "DestLng": -0.4543,
      "CurrentLat": 44.5722,
      "CurrentLng": 26.1022,
      "Status": "Scheduled",
      "TotalTimeHours": 2.338189921826499,
      "DepartureTime": "2026-05-25T17:43:18.3283222",
      "Progress": 0,
      "TakeoffCleared": false,
      "LandingCleared": false,
      "ActualDepartureTime": null,
      "HoldingStartTime": null
    },
    {
      "Id": 141,
      "FlightNumber": "AF202",
      "OriginName": "Bucharest",
      "DestName": "Paris",
      "OriginLat": 44.5722,
      "OriginLng": 26.1022,
      "DestLat": 49.0097,
      "DestLng": 2.5479,
      "CurrentLat": 44.5722,
      "CurrentLng": 26.1022,
      "Status": "Scheduled",
      "TotalTimeHours": 2.0571592176528375,
      "DepartureTime": "2026-05-26T12:43:18.3283222",
      "Progress": 0,
      "TakeoffCleared": false,
      "LandingCleared": false,
      "ActualDepartureTime": null,
      "HoldingStartTime": null
    },
    {
      "Id": 142,
      "FlightNumber": "KLM101",
      "OriginName": "Bucharest",
      "DestName": "Amsterdam",
      "OriginLat": 44.5722,
      "OriginLng": 26.1022,
      "DestLat": 52.3105,
      "DestLng": 4.7683,
      "CurrentLat": 44.5722,
      "CurrentLng": 26.1022,
      "Status": "Scheduled",
      "TotalTimeHours": 1.9822450162022773,
      "DepartureTime": "2026-05-27T11:43:18.3283222",
      "Progress": 0,
      "TakeoffCleared": false,
      "LandingCleared": false,
      "ActualDepartureTime": null,
      "HoldingStartTime": null
    }
  ]
}