{
  "VirtualTime": "2026-05-28T15:19:47.5422595+03:00",
  "GlobalSpeedMultiplier": 1,
  "ActiveFlights": [
    {
      "Id": 1,
      "FlightNumber": "RO301",
      "OriginName": "Bucharest",
      "DestName": "Frankfurt",
      "OriginLat": 44.5722,
      "OriginLng": 26.1022,
      "DestLat": 50.0379,
      "DestLng": 8.5622,
      "CurrentLat": 46.814601340038976,
      "CurrentLng": 18.90610078045198,
      "Status": "Airborne",
      "TotalTimeHours": 1.6120902112630604,
      "DepartureTime": "2026-05-28T14:40:05.5422595+03:00",
      "Progress": 0.4102679144554173,
      "AircraftModel": "",
      "TakeoffCleared": true,
      "LandingCleared": false,
      "ActualDepartureTime": "2026-05-28T14:40:06.5422595+03:00",
      "ActualArrivalTime": null,
      "HoldingStartTime": null,
      "FuelPercent": 98.67699999999368,
      "EmergencyDeclared": false,
      "ServicingStarted": false,
      "ServicingComplete": false,
      "AssignedGate": "",
      "TotalPassengers": 0,
      "BoardedCount": 0,
      "BoardingStarted": false
    },
    {
      "Id": 2,
      "FlightNumber": "AF108",
      "OriginName": "Paris",
      "DestName": "Bucharest",
      "OriginLat": 49.0097,
      "OriginLng": 2.5479,
      "DestLat": 44.5722,
      "DestLng": 26.1022,
      "CurrentLat": 47.58541421125492,
      "CurrentLng": 10.108025014949476,
      "Status": "Airborne",
      "TotalTimeHours": 2.0571592176528375,
      "DepartureTime": "2026-05-28T14:40:09.5422595+03:00",
      "Progress": 0.32096581154818765,
      "AircraftModel": "",
      "TakeoffCleared": true,
      "LandingCleared": false,
      "ActualDepartureTime": "2026-05-28T14:40:10.5422595+03:00",
      "ActualArrivalTime": null,
      "HoldingStartTime": null,
      "FuelPercent": 98.67699999999368,
      "EmergencyDeclared": false,
      "ServicingStarted": false,
      "ServicingComplete": false,
      "AssignedGate": "",
      "TotalPassengers": 0,
      "BoardedCount": 0,
      "BoardingStarted": false
    },
    {
      "Id": 3,
      "FlightNumber": "KLM99",
      "OriginName": "Bucharest",
      "DestName": "Amsterdam",
      "OriginLat": 44.5722,
      "OriginLng": 26.1022,
      "DestLat": 52.3105,
      "DestLng": 4.7683,
      "CurrentLat": 47.14762757353124,
      "CurrentLng": 19.00194357275395,
      "Status": "Airborne",
      "TotalTimeHours": 1.9822450162022773,
      "DepartureTime": "2026-05-28T14:40:11.5422595+03:00",
      "Progress": 0.3328156796106689,
      "AircraftModel": "",
      "TakeoffCleared": true,
      "LandingCleared": false,
      "ActualDepartureTime": "2026-05-28T14:40:12.5422595+03:00",
      "ActualArrivalTime": null,
      "HoldingStartTime": null,
      "FuelPercent": 98.67699999999368,
      "EmergencyDeclared": false,
      "ServicingStarted": false,
      "ServicingComplete": false,
      "AssignedGate": "",
      "TotalPassengers": 0,
      "BoardedCount": 0,
      "BoardingStarted": false
    },
    {
      "Id": 4,
      "FlightNumber": "BA402",
      "OriginName": "Bucharest",
      "DestName": "Rome",
      "OriginLat": 44.5722,
      "OriginLng": 26.1022,
      "DestLat": 41.7999,
      "DestLng": 12.2462,
      "CurrentLat": 44.5722,
      "CurrentLng": 26.1022,
      "Status": "Airborne",
      "TotalTimeHours": 1.292548128657566,
      "DepartureTime": "2026-05-28T12:35:52.1995226",
      "Progress": 0,
      "AircraftModel": "",
      "TakeoffCleared": false,
      "LandingCleared": false,
      "ActualDepartureTime": null,
      "ActualArrivalTime": null,
      "HoldingStartTime": null,
      "FuelPercent": 100,
      "EmergencyDeclared": false,
      "ServicingStarted": false,
      "ServicingComplete": false,
      "AssignedGate": "",
      "TotalPassengers": 0,
      "BoardedCount": 0,
      "BoardingStarted": false
    },
    {
      "Id": 5,
      "FlightNumber": "RO381",
      "OriginName": "Bucharest",
      "DestName": "Paris",
      "OriginLat": 44.5722,
      "OriginLng": 26.1022,
      "DestLat": 49.0097,
      "DestLng": 2.5479,
      "CurrentLat": 45.39848948366827,
      "CurrentLng": 21.7162461103848,
      "Status": "Airborne",
      "TotalTimeHours": 2.0571592176528375,
      "DepartureTime": "2026-05-28T14:56:47.5422595+03:00",
      "Progress": 0.18620608082665158,
      "AircraftModel": "",
      "TakeoffCleared": true,
      "LandingCleared": false,
      "ActualDepartureTime": "2026-05-28T14:56:48.5422595+03:00",
      "ActualArrivalTime": null,
      "HoldingStartTime": null,
      "FuelPercent": 98.67699999999368,
      "EmergencyDeclared": false,
      "ServicingStarted": false,
      "ServicingComplete": false,
      "AssignedGate": "",
      "TotalPassengers": 0,
      "BoardedCount": 0,
      "BoardingStarted": false
    },
    {
      "Id": 6,
      "FlightNumber": "LH202",
      "OriginName": "Bucharest",
      "DestName": "Berlin",
      "OriginLat": 44.5722,
      "OriginLng": 26.1022,
      "DestLat": 52.3667,
      "DestLng": 13.5033,
      "CurrentLat": 47.666355379467284,
      "CurrentLng": 21.100858770880713,
      "Status": "Airborne",
      "TotalTimeHours": 1.4078993813149947,
      "DepartureTime": "2026-05-28T14:46:14.5422595+03:00",
      "Progress": 0.39696649938639794,
      "AircraftModel": "",
      "TakeoffCleared": true,
      "LandingCleared": false,
      "ActualDepartureTime": "2026-05-28T14:46:15.5422595+03:00",
      "ActualArrivalTime": null,
      "HoldingStartTime": null,
      "FuelPercent": 98.67699999999368,
      "EmergencyDeclared": false,
      "ServicingStarted": false,
      "ServicingComplete": false,
      "AssignedGate": "",
      "TotalPassengers": 0,
      "BoardedCount": 0,
      "BoardingStarted": false
    },
    {
      "Id": 7,
      "FlightNumber": "W6314",
      "OriginName": "Bucharest",
      "DestName": "London",
      "OriginLat": 44.5722,
      "OriginLng": 26.1022,
      "DestLat": 51.47,
      "DestLng": -0.4543,
      "CurrentLat": 45.4350924798478,
      "CurrentLng": 22.780067705488985,
      "Status": "Airborne",
      "TotalTimeHours": 2.338189921826499,
      "DepartureTime": "2026-05-28T15:02:13.5422595+03:00",
      "Progress": 0.1250967670630925,
      "AircraftModel": "",
      "TakeoffCleared": true,
      "LandingCleared": false,
      "ActualDepartureTime": "2026-05-28T15:02:14.5422595+03:00",
      "ActualArrivalTime": null,
      "HoldingStartTime": null,
      "FuelPercent": 98.94599999999497,
      "EmergencyDeclared": false,
      "ServicingStarted": false,
      "ServicingComplete": false,
      "AssignedGate": "",
      "TotalPassengers": 0,
      "BoardedCount": 0,
      "BoardingStarted": true
    },
    {
      "Id": 8,
      "FlightNumber": "RO361",
      "OriginName": "Bucharest",
      "DestName": "Amsterdam",
      "OriginLat": 44.5722,
      "OriginLng": 26.1022,
      "DestLat": 52.3105,
      "DestLng": 4.7683,
      "CurrentLat": 44.5722,
      "CurrentLng": 26.1022,
      "Status": "Boarding Complete",
      "TotalTimeHours": 1.9822450162022773,
      "DepartureTime": "2026-05-28T15:20:52.1995226",
      "Progress": 0,
      "AircraftModel": "",
      "TakeoffCleared": false,
      "LandingCleared": false,
      "ActualDepartureTime": null,
      "ActualArrivalTime": null,
      "HoldingStartTime": null,
      "FuelPercent": 100,
      "EmergencyDeclared": false,
      "ServicingStarted": false,
      "ServicingComplete": false,
      "AssignedGate": "",
      "TotalPassengers": 0,
      "BoardedCount": 0,
      "BoardingStarted": true
    },
    {
      "Id": 9,
      "FlightNumber": "IB311",
      "OriginName": "Bucharest",
      "DestName": "Madrid",
      "OriginLat": 44.5722,
      "OriginLng": 26.1022,
      "DestLat": 40.4983,
      "DestLng": -3.5676,
      "CurrentLat": 44.5722,
      "CurrentLng": 26.1022,
      "Status": "Scheduled",
      "TotalTimeHours": 2.7318921795458304,
      "DepartureTime": "2026-05-28T16:05:52.1995226",
      "Progress": 0,
      "AircraftModel": "",
      "TakeoffCleared": false,
      "LandingCleared": false,
      "ActualDepartureTime": null,
      "ActualArrivalTime": null,
      "HoldingStartTime": null,
      "FuelPercent": 100,
      "EmergencyDeclared": false,
      "ServicingStarted": false,
      "ServicingComplete": false,
      "AssignedGate": "",
      "TotalPassengers": 0,
      "BoardedCount": 0,
      "BoardingStarted": false
    },
    {
      "Id": 10,
      "FlightNumber": "FR102",
      "OriginName": "Bucharest",
      "DestName": "Rome",
      "OriginLat": 44.5722,
      "OriginLng": 26.1022,
      "DestLat": 41.7999,
      "DestLng": 12.2462,
      "CurrentLat": 44.5722,
      "CurrentLng": 26.1022,
      "Status": "Scheduled",
      "TotalTimeHours": 1.292548128657566,
      "DepartureTime": "2026-05-28T16:35:52.1995226",
      "Progress": 0,
      "AircraftModel": "",
      "TakeoffCleared": false,
      "LandingCleared": false,
      "ActualDepartureTime": null,
      "ActualArrivalTime": null,
      "HoldingStartTime": null,
      "FuelPercent": 100,
      "EmergencyDeclared": false,
      "ServicingStarted": false,
      "ServicingComplete": false,
      "AssignedGate": "",
      "TotalPassengers": 0,
      "BoardedCount": 0,
      "BoardingStarted": false
    },
    {
      "Id": 11,
      "FlightNumber": "RO315",
      "OriginName": "Bucharest",
      "DestName": "Munich",
      "OriginLat": 44.5722,
      "OriginLng": 26.1022,
      "DestLat": 48.3538,
      "DestLng": 11.7861,
      "CurrentLat": 44.5722,
      "CurrentLng": 26.1022,
      "Status": "Scheduled",
      "TotalTimeHours": 1.302417643384092,
      "DepartureTime": "2026-05-29T16:35:52.1995226",
      "Progress": 0,
      "AircraftModel": "",
      "TakeoffCleared": false,
      "LandingCleared": false,
      "ActualDepartureTime": null,
      "ActualArrivalTime": null,
      "HoldingStartTime": null,
      "FuelPercent": 100,
      "EmergencyDeclared": false,
      "ServicingStarted": false,
      "ServicingComplete": false,
      "AssignedGate": "",
      "TotalPassengers": 0,
      "BoardedCount": 0,
      "BoardingStarted": false
    },
    {
      "Id": 12,
      "FlightNumber": "RO391",
      "OriginName": "Bucharest",
      "DestName": "London",
      "OriginLat": 44.5722,
      "OriginLng": 26.1022,
      "DestLat": 51.47,
      "DestLng": -0.4543,
      "CurrentLat": 44.5722,
      "CurrentLng": 26.1022,
      "Status": "Scheduled",
      "TotalTimeHours": 2.338189921826499,
      "DepartureTime": "2026-05-29T20:35:52.1995226",
      "Progress": 0,
      "AircraftModel": "",
      "TakeoffCleared": false,
      "LandingCleared": false,
      "ActualDepartureTime": null,
      "ActualArrivalTime": null,
      "HoldingStartTime": null,
      "FuelPercent": 100,
      "EmergencyDeclared": false,
      "ServicingStarted": false,
      "ServicingComplete": false,
      "AssignedGate": "",
      "TotalPassengers": 0,
      "BoardedCount": 0,
      "BoardingStarted": false
    },
    {
      "Id": 13,
      "FlightNumber": "AF202",
      "OriginName": "Bucharest",
      "DestName": "Paris",
      "OriginLat": 44.5722,
      "OriginLng": 26.1022,
      "DestLat": 49.0097,
      "DestLng": 2.5479,
      "CurrentLat": 44.5722,
      "CurrentLng": 26.1022,
      "Status": "Scheduled",
      "TotalTimeHours": 2.0571592176528375,
      "DepartureTime": "2026-05-30T15:35:52.1995226",
      "Progress": 0,
      "AircraftModel": "",
      "TakeoffCleared": false,
      "LandingCleared": false,
      "ActualDepartureTime": null,
      "ActualArrivalTime": null,
      "HoldingStartTime": null,
      "FuelPercent": 100,
      "EmergencyDeclared": false,
      "ServicingStarted": false,
      "ServicingComplete": false,
      "AssignedGate": "",
      "TotalPassengers": 0,
      "BoardedCount": 0,
      "BoardingStarted": false
    },
    {
      "Id": 14,
      "FlightNumber": "KLM101",
      "OriginName": "Bucharest",
      "DestName": "Amsterdam",
      "OriginLat": 44.5722,
      "OriginLng": 26.1022,
      "DestLat": 52.3105,
      "DestLng": 4.7683,
      "CurrentLat": 44.5722,
      "CurrentLng": 26.1022,
      "Status": "Scheduled",
      "TotalTimeHours": 1.9822450162022773,
      "DepartureTime": "2026-05-31T14:35:52.1995226",
      "Progress": 0,
      "AircraftModel": "",
      "TakeoffCleared": false,
      "LandingCleared": false,
      "ActualDepartureTime": null,
      "ActualArrivalTime": null,
      "HoldingStartTime": null,
      "FuelPercent": 100,
      "EmergencyDeclared": false,
      "ServicingStarted": false,
      "ServicingComplete": false,
      "AssignedGate": "",
      "TotalPassengers": 0,
      "BoardedCount": 0,
      "BoardingStarted": false
    }
  ]
}