{
  "VirtualTime": "2026-05-30T15:50:18.5422595+03:00",
  "GlobalSpeedMultiplier": 1,
  "ActiveFlights": [
    {
      "Id": 13,
      "FlightNumber": "AF202",
      "OriginName": "Bucharest",
      "DestName": "Paris",
      "OriginLat": 44.5722,
      "OriginLng": 26.1022,
      "DestLat": 49.0097,
      "DestLng": 2.5479,
      "CurrentLat": 44.95029185220789,
      "CurrentLng": 24.095284188290652,
      "Status": "Airborne",
      "TotalTimeHours": 2.0571592176528375,
      "DepartureTime": "2026-05-30T15:35:52.1995226",
      "Progress": 0.08520379768065058,
      "AircraftModel": "",
      "TakeoffCleared": true,
      "LandingCleared": false,
      "ActualDepartureTime": "2026-05-30T15:39:47.5422595+03:00",
      "ActualArrivalTime": null,
      "HoldingStartTime": null,
      "FuelPercent": 99.26899999999893,
      "EmergencyDeclared": false,
      "ServicingStarted": false,
      "ServicingComplete": false,
      "AssignedGate": "",
      "TotalPassengers": 0,
      "BoardedCount": 0,
      "BoardingStarted": true,
      "PassengersGenerated": false,
      "TotalTickets": 0,
      "CheckedInCount": 0,
      "TotalBags": 0,
      "BagsLoadedCount": 0
    },
    {
      "Id": 14,
      "FlightNumber": "KLM101",
      "OriginName": "Bucharest",
      "DestName": "Amsterdam",
      "OriginLat": 44.5722,
      "OriginLng": 26.1022,
      "DestLat": 52.3105,
      "DestLng": 4.7683,
      "CurrentLat": 44.5722,
      "CurrentLng": 26.1022,
      "Status": "Scheduled",
      "TotalTimeHours": 1.9822450162022773,
      "DepartureTime": "2026-05-31T14:35:52.1995226",
      "Progress": 0,
      "AircraftModel": "",
      "TakeoffCleared": false,
      "LandingCleared": false,
      "ActualDepartureTime": null,
      "ActualArrivalTime": null,
      "HoldingStartTime": null,
      "FuelPercent": 100,
      "EmergencyDeclared": false,
      "ServicingStarted": false,
      "ServicingComplete": false,
      "AssignedGate": "",
      "TotalPassengers": 0,
      "BoardedCount": 0,
      "BoardingStarted": false,
      "PassengersGenerated": false,
      "TotalTickets": 0,
      "CheckedInCount": 0,
      "TotalBags": 0,
      "BagsLoadedCount": 0
    },
    {
      "Id": 15,
      "FlightNumber": "RO4326",
      "OriginName": "Bucharest",
      "DestName": "Lisbon",
      "OriginLat": 44.5722,
      "OriginLng": 26.1022,
      "DestLat": 38.7742,
      "DestLng": -9.1342,
      "CurrentLat": 44.5722,
      "CurrentLng": 26.1022,
      "Status": "Scheduled",
      "TotalTimeHours": 3.3026223275989453,
      "DepartureTime": "2026-05-30T18:39:28.5422595+03:00",
      "Progress": 0,
      "AircraftModel": "Boeing 737-900",
      "TakeoffCleared": false,
      "LandingCleared": false,
      "ActualDepartureTime": null,
      "ActualArrivalTime": null,
      "HoldingStartTime": null,
      "FuelPercent": 100,
      "EmergencyDeclared": false,
      "ServicingStarted": false,
      "ServicingComplete": false,
      "AssignedGate": "",
      "TotalPassengers": 204,
      "BoardedCount": 0,
      "BoardingStarted": false,
      "PassengersGenerated": true,
      "TotalTickets": 154,
      "CheckedInCount": 0,
      "TotalBags": 147,
      "BagsLoadedCount": 0
    },
    {
      "Id": 16,
      "FlightNumber": "RO200",
      "OriginName": "Bucharest",
      "DestName": "Zurich",
      "OriginLat": 44.5722,
      "OriginLng": 26.1022,
      "DestLat": 47.4647,
      "DestLng": 8.5492,
      "CurrentLat": 47.4647,
      "CurrentLng": 8.5492,
      "Status": "Landed",
      "TotalTimeHours": 1.5441682971726582,
      "DepartureTime": "2026-05-30T12:46:28.5422595+03:00",
      "Progress": 1,
      "AircraftModel": "Boeing 737-800",
      "TakeoffCleared": true,
      "LandingCleared": true,
      "ActualDepartureTime": "2026-05-30T12:51:27.5422595+03:00",
      "ActualArrivalTime": "2026-05-30T15:38:07.5422595+03:00",
      "HoldingStartTime": "2026-05-30T14:26:27.5422595+03:00",
      "FuelPercent": 85.7000000000002,
      "EmergencyDeclared": false,
      "ServicingStarted": true,
      "ServicingComplete": false,
      "AssignedGate": "B01",
      "TotalPassengers": 155,
      "BoardedCount": 45,
      "BoardingStarted": true,
      "PassengersGenerated": true,
      "TotalTickets": 155,
      "CheckedInCount": 79,
      "TotalBags": 158,
      "BagsLoadedCount": 71
    },
    {
      "Id": 17,
      "FlightNumber": "RO4544",
      "OriginName": "Bucharest",
      "DestName": "Zurich",
      "OriginLat": 44.5722,
      "OriginLng": 26.1022,
      "DestLat": 47.4647,
      "DestLng": 8.5492,
      "CurrentLat": 44.5722,
      "CurrentLng": 26.1022,
      "Status": "Scheduled",
      "TotalTimeHours": 1.5441682971726582,
      "DepartureTime": "2026-05-30T18:36:28.5422595+03:00",
      "Progress": 0,
      "AircraftModel": "Boeing 737-800",
      "TakeoffCleared": false,
      "LandingCleared": false,
      "ActualDepartureTime": null,
      "ActualArrivalTime": null,
      "HoldingStartTime": null,
      "FuelPercent": 100,
      "EmergencyDeclared": false,
      "ServicingStarted": false,
      "ServicingComplete": false,
      "AssignedGate": "",
      "TotalPassengers": 189,
      "BoardedCount": 0,
      "BoardingStarted": false,
      "PassengersGenerated": true,
      "TotalTickets": 166,
      "CheckedInCount": 0,
      "TotalBags": 176,
      "BagsLoadedCount": 0
    },
    {
      "Id": 18,
      "FlightNumber": "RO4318",
      "OriginName": "Bucharest",
      "DestName": "Lisbon",
      "OriginLat": 44.5722,
      "OriginLng": 26.1022,
      "DestLat": 38.7742,
      "DestLng": -9.1342,
      "CurrentLat": 40.607039614330716,
      "CurrentLng": 2.0045840266303614,
      "Status": "Airborne",
      "TotalTimeHours": 3.3026223275989453,
      "DepartureTime": "2026-05-30T13:29:28.5422595+03:00",
      "Progress": 0.6838841644824567,
      "AircraftModel": "Boeing 737-800",
      "TakeoffCleared": true,
      "LandingCleared": false,
      "ActualDepartureTime": "2026-05-30T13:34:47.5422595+03:00",
      "ActualArrivalTime": null,
      "HoldingStartTime": null,
      "FuelPercent": 91.76899999999935,
      "EmergencyDeclared": false,
      "ServicingStarted": false,
      "ServicingComplete": false,
      "AssignedGate": "",
      "TotalPassengers": 167,
      "BoardedCount": 50,
      "BoardingStarted": true,
      "PassengersGenerated": true,
      "TotalTickets": 167,
      "CheckedInCount": 86,
      "TotalBags": 158,
      "BagsLoadedCount": 71
    },
    {
      "Id": 21,
      "FlightNumber": "RO5501",
      "OriginName": "Bucharest",
      "DestName": "Lisbon",
      "OriginLat": 44.5722,
      "OriginLng": 26.1022,
      "DestLat": 38.7742,
      "DestLng": -9.1342,
      "CurrentLat": 44.5722,
      "CurrentLng": 26.1022,
      "Status": "Boarding",
      "TotalTimeHours": 3.3026223275989453,
      "DepartureTime": "2026-05-30T16:09:28.5422595+03:00",
      "Progress": 0,
      "AircraftModel": "Boeing 737-700",
      "TakeoffCleared": false,
      "LandingCleared": false,
      "ActualDepartureTime": null,
      "ActualArrivalTime": null,
      "HoldingStartTime": null,
      "FuelPercent": 100,
      "EmergencyDeclared": false,
      "ServicingStarted": false,
      "ServicingComplete": false,
      "AssignedGate": "",
      "TotalPassengers": 138,
      "BoardedCount": 70,
      "BoardingStarted": true,
      "PassengersGenerated": true,
      "TotalTickets": 138,
      "CheckedInCount": 70,
      "TotalBags": 129,
      "BagsLoadedCount": 64
    },
    {
      "Id": 25,
      "FlightNumber": "RO1409",
      "OriginName": "Bucharest",
      "DestName": "Madrid",
      "OriginLat": 44.5722,
      "OriginLng": 26.1022,
      "DestLat": 40.4983,
      "DestLng": -3.5676,
      "CurrentLat": 44.5722,
      "CurrentLng": 26.1022,
      "Status": "Scheduled",
      "TotalTimeHours": 2.7318921795458304,
      "DepartureTime": "2026-05-30T17:31:20.5422595+03:00",
      "Progress": 0,
      "AircraftModel": "Boeing 737-800",
      "TakeoffCleared": false,
      "LandingCleared": false,
      "ActualDepartureTime": null,
      "ActualArrivalTime": null,
      "HoldingStartTime": null,
      "FuelPercent": 100,
      "EmergencyDeclared": false,
      "ServicingStarted": false,
      "ServicingComplete": false,
      "AssignedGate": "",
      "TotalPassengers": 186,
      "BoardedCount": 0,
      "BoardingStarted": false,
      "PassengersGenerated": true,
      "TotalTickets": 143,
      "CheckedInCount": 0,
      "TotalBags": 161,
      "BagsLoadedCount": 0
    },
    {
      "Id": 27,
      "FlightNumber": "RO2577",
      "OriginName": "Paris",
      "DestName": "Bucharest",
      "OriginLat": 49.0097,
      "OriginLng": 2.5479,
      "DestLat": 44.5722,
      "DestLng": 26.1022,
      "CurrentLat": 46.834024064394875,
      "CurrentLng": 14.096412380850463,
      "Status": "Airborne",
      "TotalTimeHours": 2.0571592176528375,
      "DepartureTime": "2026-05-30T14:45:20.5422595+03:00",
      "Progress": 0.49029316858707167,
      "AircraftModel": "Airbus A321",
      "TakeoffCleared": true,
      "LandingCleared": false,
      "ActualDepartureTime": "2026-05-30T14:49:47.5422595+03:00",
      "ActualArrivalTime": null,
      "HoldingStartTime": null,
      "FuelPercent": 96.2689999999991,
      "EmergencyDeclared": false,
      "ServicingStarted": false,
      "ServicingComplete": false,
      "AssignedGate": "",
      "TotalPassengers": 187,
      "BoardedCount": 55,
      "BoardingStarted": true,
      "PassengersGenerated": true,
      "TotalTickets": 187,
      "CheckedInCount": 95,
      "TotalBags": 201,
      "BagsLoadedCount": 93
    },
    {
      "Id": 30,
      "FlightNumber": "RO6100",
      "OriginName": "Munich",
      "DestName": "Zurich",
      "OriginLat": 48.3538,
      "OriginLng": 11.7861,
      "DestLat": 47.4647,
      "DestLng": 8.5492,
      "CurrentLat": 47.4647,
      "CurrentLng": 8.5492,
      "Status": "Landed",
      "TotalTimeHours": 0.2896721478570279,
      "DepartureTime": "2026-05-30T15:01:59.5422595+03:00",
      "Progress": 1,
      "AircraftModel": "Boeing 737-800",
      "TakeoffCleared": true,
      "LandingCleared": true,
      "ActualDepartureTime": "2026-05-30T15:06:27.5422595+03:00",
      "ActualArrivalTime": "2026-05-30T15:39:47.5422595+03:00",
      "HoldingStartTime": "2026-05-30T15:26:27.5422595+03:00",
      "FuelPercent": 97.20000000000005,
      "EmergencyDeclared": false,
      "ServicingStarted": true,
      "ServicingComplete": false,
      "AssignedGate": "B02",
      "TotalPassengers": 168,
      "BoardedCount": 50,
      "BoardingStarted": true,
      "PassengersGenerated": true,
      "TotalTickets": 168,
      "CheckedInCount": 86,
      "TotalBags": 191,
      "BagsLoadedCount": 88
    },
    {
      "Id": 32,
      "FlightNumber": "RO3984",
      "OriginName": "Berlin",
      "DestName": "London",
      "OriginLat": 52.3667,
      "OriginLng": 13.5033,
      "DestLat": 51.47,
      "DestLng": -0.4543,
      "CurrentLat": 52.3667,
      "CurrentLng": 13.5033,
      "Status": "Scheduled",
      "TotalTimeHours": 1.0676863321382815,
      "DepartureTime": "2026-05-31T01:48:59.5422595+03:00",
      "Progress": 0,
      "AircraftModel": "Boeing 737-900",
      "TakeoffCleared": false,
      "LandingCleared": false,
      "ActualDepartureTime": null,
      "ActualArrivalTime": null,
      "HoldingStartTime": null,
      "FuelPercent": 100,
      "EmergencyDeclared": false,
      "ServicingStarted": false,
      "ServicingComplete": false,
      "AssignedGate": "",
      "TotalPassengers": 204,
      "BoardedCount": 0,
      "BoardingStarted": false,
      "PassengersGenerated": true,
      "TotalTickets": 164,
      "CheckedInCount": 0,
      "TotalBags": 162,
      "BagsLoadedCount": 0
    },
    {
      "Id": 33,
      "FlightNumber": "RO4496",
      "OriginName": "Athens",
      "DestName": "Frankfurt",
      "OriginLat": 37.9364,
      "OriginLng": 23.9445,
      "DestLat": 50.0379,
      "DestLng": 8.5622,
      "CurrentLat": 37.9364,
      "CurrentLng": 23.9445,
      "Status": "Scheduled",
      "TotalTimeHours": 2.018246122107661,
      "DepartureTime": "2026-05-31T02:22:59.5422595+03:00",
      "Progress": 0,
      "AircraftModel": "Boeing 737-800",
      "TakeoffCleared": false,
      "LandingCleared": false,
      "ActualDepartureTime": null,
      "ActualArrivalTime": null,
      "HoldingStartTime": null,
      "FuelPercent": 100,
      "EmergencyDeclared": false,
      "ServicingStarted": false,
      "ServicingComplete": false,
      "AssignedGate": "",
      "TotalPassengers": 189,
      "BoardedCount": 0,
      "BoardingStarted": false,
      "PassengersGenerated": true,
      "TotalTickets": 170,
      "CheckedInCount": 0,
      "TotalBags": 182,
      "BagsLoadedCount": 0
    },
    {
      "Id": 34,
      "FlightNumber": "RO9684",
      "OriginName": "Bucharest",
      "DestName": "Paris",
      "OriginLat": 44.5722,
      "OriginLng": 26.1022,
      "DestLat": 49.0097,
      "DestLng": 2.5479,
      "CurrentLat": 44.5722,
      "CurrentLng": 26.1022,
      "Status": "Scheduled",
      "TotalTimeHours": 2.0571592176528375,
      "DepartureTime": "2026-05-30T17:50:59.5422595+03:00",
      "Progress": 0,
      "AircraftModel": "Boeing 737-800",
      "TakeoffCleared": false,
      "LandingCleared": false,
      "ActualDepartureTime": null,
      "ActualArrivalTime": null,
      "HoldingStartTime": null,
      "FuelPercent": 100,
      "EmergencyDeclared": false,
      "ServicingStarted": false,
      "ServicingComplete": false,
      "AssignedGate": "",
      "TotalPassengers": 189,
      "BoardedCount": 0,
      "BoardingStarted": false,
      "PassengersGenerated": true,
      "TotalTickets": 140,
      "CheckedInCount": 0,
      "TotalBags": 131,
      "BagsLoadedCount": 0
    },
    {
      "Id": 35,
      "FlightNumber": "RO9940",
      "OriginName": "Athens",
      "DestName": "Paris",
      "OriginLat": 37.9364,
      "OriginLng": 23.9445,
      "DestLat": 49.0097,
      "DestLng": 2.5479,
      "CurrentLat": 37.9364,
      "CurrentLng": 23.9445,
      "Status": "Scheduled",
      "TotalTimeHours": 2.342919827234806,
      "DepartureTime": "2026-05-31T03:56:59.5422595+03:00",
      "Progress": 0,
      "AircraftModel": "Airbus A321",
      "TakeoffCleared": false,
      "LandingCleared": false,
      "ActualDepartureTime": null,
      "ActualArrivalTime": null,
      "HoldingStartTime": null,
      "FuelPercent": 100,
      "EmergencyDeclared": false,
      "ServicingStarted": false,
      "ServicingComplete": false,
      "AssignedGate": "",
      "TotalPassengers": 212,
      "BoardedCount": 0,
      "BoardingStarted": false,
      "PassengersGenerated": true,
      "TotalTickets": 201,
      "CheckedInCount": 0,
      "TotalBags": 216,
      "BagsLoadedCount": 0
    },
    {
      "Id": 37,
      "FlightNumber": "RO1897",
      "OriginName": "Copenhagen",
      "DestName": "London",
      "OriginLat": 55.618,
      "OriginLng": 12.656,
      "DestLat": 51.47,
      "DestLng": -0.4543,
      "CurrentLat": 55.618,
      "CurrentLng": 12.656,
      "Status": "Scheduled",
      "TotalTimeHours": 1.0880100625757072,
      "DepartureTime": "2026-05-31T03:10:59.5422595+03:00",
      "Progress": 0,
      "AircraftModel": "Airbus A320",
      "TakeoffCleared": false,
      "LandingCleared": false,
      "ActualDepartureTime": null,
      "ActualArrivalTime": null,
      "HoldingStartTime": null,
      "FuelPercent": 100,
      "EmergencyDeclared": false,
      "ServicingStarted": false,
      "ServicingComplete": false,
      "AssignedGate": "",
      "TotalPassengers": 180,
      "BoardedCount": 0,
      "BoardingStarted": false,
      "PassengersGenerated": true,
      "TotalTickets": 139,
      "CheckedInCount": 0,
      "TotalBags": 148,
      "BagsLoadedCount": 0
    },
    {
      "Id": 38,
      "FlightNumber": "RO2303",
      "OriginName": "Amsterdam",
      "DestName": "Athens",
      "OriginLat": 52.3105,
      "OriginLng": 4.7683,
      "DestLat": 37.9364,
      "DestLng": 23.9445,
      "CurrentLat": 37.9364,
      "CurrentLng": 23.9445,
      "Status": "Landed",
      "TotalTimeHours": 2.424056176851165,
      "DepartureTime": "2026-05-30T11:16:59.5422595+03:00",
      "Progress": 1,
      "AircraftModel": "Boeing 737-800",
      "TakeoffCleared": true,
      "LandingCleared": true,
      "ActualDepartureTime": "2026-05-30T11:21:27.5422595+03:00",
      "ActualArrivalTime": "2026-05-30T15:41:27.5422595+03:00",
      "HoldingStartTime": "2026-05-30T13:49:47.5422595+03:00",
      "FuelPercent": 77.70000000000032,
      "EmergencyDeclared": false,
      "ServicingStarted": true,
      "ServicingComplete": false,
      "AssignedGate": "B03",
      "TotalPassengers": 169,
      "BoardedCount": 50,
      "BoardingStarted": true,
      "PassengersGenerated": true,
      "TotalTickets": 169,
      "CheckedInCount": 86,
      "TotalBags": 168,
      "BagsLoadedCount": 77
    },
    {
      "Id": 39,
      "FlightNumber": "RO7929",
      "OriginName": "Amsterdam",
      "DestName": "Copenhagen",
      "OriginLat": 52.3105,
      "OriginLng": 4.7683,
      "DestLat": 55.618,
      "DestLng": 12.656,
      "CurrentLat": 52.3105,
      "CurrentLng": 4.7683,
      "Status": "Scheduled",
      "TotalTimeHours": 0.7033606324252654,
      "DepartureTime": "2026-05-30T18:08:59.5422595+03:00",
      "Progress": 0,
      "AircraftModel": "Boeing 737-700",
      "TakeoffCleared": false,
      "LandingCleared": false,
      "ActualDepartureTime": null,
      "ActualArrivalTime": null,
      "HoldingStartTime": null,
      "FuelPercent": 100,
      "EmergencyDeclared": false,
      "ServicingStarted": false,
      "ServicingComplete": false,
      "AssignedGate": "",
      "TotalPassengers": 148,
      "BoardedCount": 0,
      "BoardingStarted": false,
      "PassengersGenerated": true,
      "TotalTickets": 136,
      "CheckedInCount": 0,
      "TotalBags": 147,
      "BagsLoadedCount": 0
    },
    {
      "Id": 40,
      "FlightNumber": "RO5498",
      "OriginName": "Lisbon",
      "DestName": "Vienna",
      "OriginLat": 38.7742,
      "OriginLng": -9.1342,
      "DestLat": 48.1103,
      "DestLng": 16.5697,
      "CurrentLat": 38.7742,
      "CurrentLng": -9.1342,
      "Status": "Scheduled",
      "TotalTimeHours": 2.5614893331981676,
      "DepartureTime": "2026-05-30T21:22:07.5422595+03:00",
      "Progress": 0,
      "AircraftModel": "Airbus A321",
      "TakeoffCleared": false,
      "LandingCleared": false,
      "ActualDepartureTime": null,
      "ActualArrivalTime": null,
      "HoldingStartTime": null,
      "FuelPercent": 100,
      "EmergencyDeclared": false,
      "ServicingStarted": false,
      "ServicingComplete": false,
      "AssignedGate": "",
      "TotalPassengers": 212,
      "BoardedCount": 0,
      "BoardingStarted": false,
      "PassengersGenerated": true,
      "TotalTickets": 162,
      "CheckedInCount": 0,
      "TotalBags": 168,
      "BagsLoadedCount": 0
    },
    {
      "Id": 41,
      "FlightNumber": "RO4639",
      "OriginName": "Frankfurt",
      "DestName": "Bucharest",
      "OriginLat": 50.0379,
      "OriginLng": 8.5622,
      "DestLat": 44.5722,
      "DestLng": 26.1022,
      "CurrentLat": 50.0379,
      "CurrentLng": 8.5622,
      "Status": "Scheduled",
      "TotalTimeHours": 1.6120902112630604,
      "DepartureTime": "2026-05-31T11:31:07.5422595+03:00",
      "Progress": 0,
      "AircraftModel": "Boeing 737-800",
      "TakeoffCleared": false,
      "LandingCleared": false,
      "ActualDepartureTime": null,
      "ActualArrivalTime": null,
      "HoldingStartTime": null,
      "FuelPercent": 100,
      "EmergencyDeclared": false,
      "ServicingStarted": false,
      "ServicingComplete": false,
      "AssignedGate": "",
      "TotalPassengers": 189,
      "BoardedCount": 0,
      "BoardingStarted": false,
      "PassengersGenerated": true,
      "TotalTickets": 162,
      "CheckedInCount": 0,
      "TotalBags": 160,
      "BagsLoadedCount": 0
    },
    {
      "Id": 42,
      "FlightNumber": "RO4002",
      "OriginName": "Warsaw",
      "DestName": "Athens",
      "OriginLat": 52.1657,
      "OriginLng": 20.9671,
      "DestLat": 37.9364,
      "DestLng": 23.9445,
      "CurrentLat": 52.1657,
      "CurrentLng": 20.9671,
      "Status": "Scheduled",
      "TotalTimeHours": 1.7767382694128793,
      "DepartureTime": "2026-05-31T12:15:07.5422595+03:00",
      "Progress": 0,
      "AircraftModel": "Airbus A320",
      "TakeoffCleared": false,
      "LandingCleared": false,
      "ActualDepartureTime": null,
      "ActualArrivalTime": null,
      "HoldingStartTime": null,
      "FuelPercent": 100,
      "EmergencyDeclared": false,
      "ServicingStarted": false,
      "ServicingComplete": false,
      "AssignedGate": "",
      "TotalPassengers": 180,
      "BoardedCount": 0,
      "BoardingStarted": false,
      "PassengersGenerated": true,
      "TotalTickets": 136,
      "CheckedInCount": 0,
      "TotalBags": 155,
      "BagsLoadedCount": 0
    },
    {
      "Id": 43,
      "FlightNumber": "RO819",
      "OriginName": "Munich",
      "DestName": "Frankfurt",
      "OriginLat": 48.3538,
      "OriginLng": 11.7861,
      "DestLat": 50.0379,
      "DestLng": 8.5622,
      "CurrentLat": 48.3538,
      "CurrentLng": 11.7861,
      "Status": "Scheduled",
      "TotalTimeHours": 0.33317881107013625,
      "DepartureTime": "2026-05-31T12:23:07.5422595+03:00",
      "Progress": 0,
      "AircraftModel": "Airbus A320",
      "TakeoffCleared": false,
      "LandingCleared": false,
      "ActualDepartureTime": null,
      "ActualArrivalTime": null,
      "HoldingStartTime": null,
      "FuelPercent": 100,
      "EmergencyDeclared": false,
      "ServicingStarted": false,
      "ServicingComplete": false,
      "AssignedGate": "",
      "TotalPassengers": 174,
      "BoardedCount": 0,
      "BoardingStarted": false,
      "PassengersGenerated": true,
      "TotalTickets": 124,
      "CheckedInCount": 0,
      "TotalBags": 114,
      "BagsLoadedCount": 0
    },
    {
      "Id": 44,
      "FlightNumber": "RO4006",
      "OriginName": "Frankfurt",
      "DestName": "London",
      "OriginLat": 50.0379,
      "OriginLng": 8.5622,
      "DestLat": 51.47,
      "DestLng": -0.4543,
      "CurrentLat": 50.0379,
      "CurrentLng": 8.5622,
      "Status": "Scheduled",
      "TotalTimeHours": 0.7261164502757742,
      "DepartureTime": "2026-05-30T21:45:07.5422595+03:00",
      "Progress": 0,
      "AircraftModel": "Airbus A320",
      "TakeoffCleared": false,
      "LandingCleared": false,
      "ActualDepartureTime": null,
      "ActualArrivalTime": null,
      "HoldingStartTime": null,
      "FuelPercent": 100,
      "EmergencyDeclared": false,
      "ServicingStarted": false,
      "ServicingComplete": false,
      "AssignedGate": "",
      "TotalPassengers": 168,
      "BoardedCount": 0,
      "BoardingStarted": false,
      "PassengersGenerated": true,
      "TotalTickets": 149,
      "CheckedInCount": 0,
      "TotalBags": 136,
      "BagsLoadedCount": 0
    },
    {
      "Id": 45,
      "FlightNumber": "RO7657",
      "OriginName": "Zurich",
      "DestName": "Athens",
      "OriginLat": 47.4647,
      "OriginLng": 8.5492,
      "DestLat": 37.9364,
      "DestLng": 23.9445,
      "CurrentLat": 47.4647,
      "CurrentLng": 8.5492,
      "Status": "Scheduled",
      "TotalTimeHours": 1.8216495213424246,
      "DepartureTime": "2026-05-31T01:23:07.5422595+03:00",
      "Progress": 0,
      "AircraftModel": "Boeing 737-700",
      "TakeoffCleared": false,
      "LandingCleared": false,
      "ActualDepartureTime": null,
      "ActualArrivalTime": null,
      "HoldingStartTime": null,
      "FuelPercent": 100,
      "EmergencyDeclared": false,
      "ServicingStarted": false,
      "ServicingComplete": false,
      "AssignedGate": "",
      "TotalPassengers": 148,
      "BoardedCount": 0,
      "BoardingStarted": false,
      "PassengersGenerated": true,
      "TotalTickets": 115,
      "CheckedInCount": 0,
      "TotalBags": 119,
      "BagsLoadedCount": 0
    },
    {
      "Id": 1,
      "FlightNumber": "RO301",
      "OriginName": "Bucharest",
      "DestName": "Frankfurt",
      "OriginLat": 44.5722,
      "OriginLng": 26.1022,
      "DestLat": 50.0379,
      "DestLng": 8.5622,
      "CurrentLat": 44.78221910912587,
      "CurrentLng": 25.4282268265606,
      "Status": "Airborne",
      "TotalTimeHours": 1.6120902112630604,
      "DepartureTime": "2026-05-28T13:35:52.1995226",
      "Progress": 0.038424924369407,
      "AircraftModel": "Boeing 737-800",
      "TakeoffCleared": true,
      "LandingCleared": false,
      "ActualDepartureTime": "2026-05-30T15:46:35.5422595+03:00",
      "ActualArrivalTime": null,
      "HoldingStartTime": null,
      "FuelPercent": 99.77599999999893,
      "EmergencyDeclared": false,
      "ServicingStarted": false,
      "ServicingComplete": false,
      "AssignedGate": "",
      "TotalPassengers": 189,
      "BoardedCount": 0,
      "BoardingStarted": false,
      "PassengersGenerated": true,
      "TotalTickets": 160,
      "CheckedInCount": 0,
      "TotalBags": 148,
      "BagsLoadedCount": 0
    },
    {
      "Id": 2,
      "FlightNumber": "AF108",
      "OriginName": "Bucharest",
      "DestName": "Paris",
      "OriginLat": 44.5722,
      "OriginLng": 26.1022,
      "DestLat": 49.0097,
      "DestLng": 2.5479,
      "CurrentLat": 44.70582041686586,
      "CurrentLng": 25.392941321693844,
      "Status": "Airborne",
      "TotalTimeHours": 2.0571592176528375,
      "DepartureTime": "2026-05-28T13:05:52.1995226",
      "Progress": 0.030111643237377302,
      "AircraftModel": "Airbus A320",
      "TakeoffCleared": true,
      "LandingCleared": false,
      "ActualDepartureTime": "2026-05-30T15:46:35.5422595+03:00",
      "ActualArrivalTime": null,
      "HoldingStartTime": null,
      "FuelPercent": 99.77599999999893,
      "EmergencyDeclared": false,
      "ServicingStarted": false,
      "ServicingComplete": false,
      "AssignedGate": "",
      "TotalPassengers": 174,
      "BoardedCount": 0,
      "BoardingStarted": false,
      "PassengersGenerated": true,
      "TotalTickets": 162,
      "CheckedInCount": 0,
      "TotalBags": 156,
      "BagsLoadedCount": 0
    },
    {
      "Id": 3,
      "FlightNumber": "KLM99",
      "OriginName": "Bucharest",
      "DestName": "Amsterdam",
      "OriginLat": 44.5722,
      "OriginLng": 26.1022,
      "DestLat": 52.3105,
      "DestLng": 4.7683,
      "CurrentLat": 44.814019094272616,
      "CurrentLng": 25.435523291252267,
      "Status": "Airborne",
      "TotalTimeHours": 1.9822450162022773,
      "DepartureTime": "2026-05-28T13:50:52.1995226",
      "Progress": 0.031249640653970172,
      "AircraftModel": "Boeing 737-800",
      "TakeoffCleared": true,
      "LandingCleared": false,
      "ActualDepartureTime": "2026-05-30T15:46:35.5422595+03:00",
      "ActualArrivalTime": null,
      "HoldingStartTime": null,
      "FuelPercent": 99.77599999999893,
      "EmergencyDeclared": false,
      "ServicingStarted": false,
      "ServicingComplete": false,
      "AssignedGate": "",
      "TotalPassengers": 186,
      "BoardedCount": 0,
      "BoardingStarted": false,
      "PassengersGenerated": true,
      "TotalTickets": 148,
      "CheckedInCount": 0,
      "TotalBags": 141,
      "BagsLoadedCount": 0
    },
    {
      "Id": 4,
      "FlightNumber": "BA402",
      "OriginName": "Bucharest",
      "DestName": "Rome",
      "OriginLat": 44.5722,
      "OriginLng": 26.1022,
      "DestLat": 41.7999,
      "DestLng": 12.2462,
      "CurrentLat": 44.43933950565873,
      "CurrentLng": 25.438161111859216,
      "Status": "Airborne",
      "TotalTimeHours": 1.292548128657566,
      "DepartureTime": "2026-05-28T12:35:52.1995226",
      "Progress": 0.0479242846521929,
      "AircraftModel": "Airbus A320",
      "TakeoffCleared": true,
      "LandingCleared": false,
      "ActualDepartureTime": "2026-05-30T15:46:35.5422595+03:00",
      "ActualArrivalTime": null,
      "HoldingStartTime": null,
      "FuelPercent": 99.77599999999893,
      "EmergencyDeclared": false,
      "ServicingStarted": false,
      "ServicingComplete": false,
      "AssignedGate": "",
      "TotalPassengers": 180,
      "BoardedCount": 0,
      "BoardingStarted": false,
      "PassengersGenerated": true,
      "TotalTickets": 177,
      "CheckedInCount": 0,
      "TotalBags": 192,
      "BagsLoadedCount": 0
    },
    {
      "Id": 5,
      "FlightNumber": "RO381",
      "OriginName": "Bucharest",
      "DestName": "Paris",
      "OriginLat": 44.5722,
      "OriginLng": 26.1022,
      "DestLat": 49.0097,
      "DestLng": 2.5479,
      "CurrentLat": 44.70582041686586,
      "CurrentLng": 25.392941321693844,
      "Status": "Airborne",
      "TotalTimeHours": 2.0571592176528375,
      "DepartureTime": "2026-05-28T14:50:52.1995226",
      "Progress": 0.030111643237377302,
      "AircraftModel": "Boeing 737-800",
      "TakeoffCleared": true,
      "LandingCleared": false,
      "ActualDepartureTime": "2026-05-30T15:46:35.5422595+03:00",
      "ActualArrivalTime": null,
      "HoldingStartTime": null,
      "FuelPercent": 99.77599999999893,
      "EmergencyDeclared": false,
      "ServicingStarted": false,
      "ServicingComplete": false,
      "AssignedGate": "",
      "TotalPassengers": 189,
      "BoardedCount": 0,
      "BoardingStarted": false,
      "PassengersGenerated": true,
      "TotalTickets": 142,
      "CheckedInCount": 0,
      "TotalBags": 154,
      "BagsLoadedCount": 0
    },
    {
      "Id": 6,
      "FlightNumber": "LH202",
      "OriginName": "Bucharest",
      "DestName": "Berlin",
      "OriginLat": 44.5722,
      "OriginLng": 26.1022,
      "DestLat": 52.3667,
      "DestLng": 13.5033,
      "CurrentLat": 44.915140680726246,
      "CurrentLng": 25.547876394585685,
      "Status": "Airborne",
      "TotalTimeHours": 1.4078993813149947,
      "DepartureTime": "2026-05-28T14:40:52.1995226",
      "Progress": 0.04399777801350236,
      "AircraftModel": "Airbus A320",
      "TakeoffCleared": true,
      "LandingCleared": false,
      "ActualDepartureTime": "2026-05-30T15:46:35.5422595+03:00",
      "ActualArrivalTime": null,
      "HoldingStartTime": null,
      "FuelPercent": 99.77599999999893,
      "EmergencyDeclared": false,
      "ServicingStarted": false,
      "ServicingComplete": false,
      "AssignedGate": "",
      "TotalPassengers": 168,
      "BoardedCount": 0,
      "BoardingStarted": false,
      "PassengersGenerated": true,
      "TotalTickets": 128,
      "CheckedInCount": 0,
      "TotalBags": 155,
      "BagsLoadedCount": 0
    },
    {
      "Id": 7,
      "FlightNumber": "W6314",
      "OriginName": "Bucharest",
      "DestName": "London",
      "OriginLat": 44.5722,
      "OriginLng": 26.1022,
      "DestLat": 51.47,
      "DestLng": -0.4543,
      "CurrentLat": 44.754939812921236,
      "CurrentLng": 25.39865251502758,
      "Status": "Airborne",
      "TotalTimeHours": 2.338189921826499,
      "DepartureTime": "2026-05-28T15:00:52.1995226",
      "Progress": 0.026492477735108856,
      "AircraftModel": "Airbus A320",
      "TakeoffCleared": true,
      "LandingCleared": false,
      "ActualDepartureTime": "2026-05-30T15:46:35.5422595+03:00",
      "ActualArrivalTime": null,
      "HoldingStartTime": null,
      "FuelPercent": 99.77599999999893,
      "EmergencyDeclared": false,
      "ServicingStarted": false,
      "ServicingComplete": false,
      "AssignedGate": "",
      "TotalPassengers": 180,
      "BoardedCount": 0,
      "BoardingStarted": false,
      "PassengersGenerated": true,
      "TotalTickets": 130,
      "CheckedInCount": 0,
      "TotalBags": 139,
      "BagsLoadedCount": 0
    },
    {
      "Id": 8,
      "FlightNumber": "RO361",
      "OriginName": "Bucharest",
      "DestName": "Amsterdam",
      "OriginLat": 44.5722,
      "OriginLng": 26.1022,
      "DestLat": 52.3105,
      "DestLng": 4.7683,
      "CurrentLat": 44.814019094272616,
      "CurrentLng": 25.435523291252267,
      "Status": "Airborne",
      "TotalTimeHours": 1.9822450162022773,
      "DepartureTime": "2026-05-28T15:20:52.1995226",
      "Progress": 0.031249640653970172,
      "AircraftModel": "Boeing 737-700",
      "TakeoffCleared": true,
      "LandingCleared": false,
      "ActualDepartureTime": "2026-05-30T15:46:35.5422595+03:00",
      "ActualArrivalTime": null,
      "HoldingStartTime": null,
      "FuelPercent": 99.77599999999893,
      "EmergencyDeclared": false,
      "ServicingStarted": false,
      "ServicingComplete": false,
      "AssignedGate": "",
      "TotalPassengers": 148,
      "BoardedCount": 0,
      "BoardingStarted": false,
      "PassengersGenerated": true,
      "TotalTickets": 111,
      "CheckedInCount": 0,
      "TotalBags": 123,
      "BagsLoadedCount": 0
    },
    {
      "Id": 9,
      "FlightNumber": "IB311",
      "OriginName": "Bucharest",
      "DestName": "Madrid",
      "OriginLat": 44.5722,
      "OriginLng": 26.1022,
      "DestLat": 40.4983,
      "DestLng": -3.5676,
      "CurrentLat": 44.479826122981116,
      "CurrentLng": 25.42945043413561,
      "Status": "Airborne",
      "TotalTimeHours": 2.7318921795458304,
      "DepartureTime": "2026-05-28T16:05:52.1995226",
      "Progress": 0.022674556817517788,
      "AircraftModel": "Airbus A320",
      "TakeoffCleared": true,
      "LandingCleared": false,
      "ActualDepartureTime": "2026-05-30T15:46:35.5422595+03:00",
      "ActualArrivalTime": null,
      "HoldingStartTime": null,
      "FuelPercent": 99.77599999999893,
      "EmergencyDeclared": false,
      "ServicingStarted": false,
      "ServicingComplete": false,
      "AssignedGate": "",
      "TotalPassengers": 180,
      "BoardedCount": 0,
      "BoardingStarted": false,
      "PassengersGenerated": true,
      "TotalTickets": 163,
      "CheckedInCount": 0,
      "TotalBags": 162,
      "BagsLoadedCount": 0
    },
    {
      "Id": 10,
      "FlightNumber": "FR102",
      "OriginName": "Bucharest",
      "DestName": "Rome",
      "OriginLat": 44.5722,
      "OriginLng": 26.1022,
      "DestLat": 41.7999,
      "DestLng": 12.2462,
      "CurrentLat": 44.43933950565873,
      "CurrentLng": 25.438161111859216,
      "Status": "Airborne",
      "TotalTimeHours": 1.292548128657566,
      "DepartureTime": "2026-05-28T16:35:52.1995226",
      "Progress": 0.0479242846521929,
      "AircraftModel": "Boeing 737-800",
      "TakeoffCleared": true,
      "LandingCleared": false,
      "ActualDepartureTime": "2026-05-30T15:46:35.5422595+03:00",
      "ActualArrivalTime": null,
      "HoldingStartTime": null,
      "FuelPercent": 99.77599999999893,
      "EmergencyDeclared": false,
      "ServicingStarted": false,
      "ServicingComplete": false,
      "AssignedGate": "",
      "TotalPassengers": 189,
      "BoardedCount": 0,
      "BoardingStarted": false,
      "PassengersGenerated": true,
      "TotalTickets": 159,
      "CheckedInCount": 0,
      "TotalBags": 173,
      "BagsLoadedCount": 0
    },
    {
      "Id": 11,
      "FlightNumber": "RO315",
      "OriginName": "Bucharest",
      "DestName": "Munich",
      "OriginLat": 44.5722,
      "OriginLng": 26.1022,
      "DestLat": 48.3538,
      "DestLng": 11.7861,
      "CurrentLat": 44.752057138991496,
      "CurrentLng": 25.42131022119839,
      "Status": "Airborne",
      "TotalTimeHours": 1.302417643384092,
      "DepartureTime": "2026-05-29T16:35:52.1995226",
      "Progress": 0.047561122009598424,
      "AircraftModel": "Boeing 737-800",
      "TakeoffCleared": true,
      "LandingCleared": false,
      "ActualDepartureTime": "2026-05-30T15:46:35.5422595+03:00",
      "ActualArrivalTime": null,
      "HoldingStartTime": null,
      "FuelPercent": 99.77599999999893,
      "EmergencyDeclared": false,
      "ServicingStarted": false,
      "ServicingComplete": false,
      "AssignedGate": "",
      "TotalPassengers": 189,
      "BoardedCount": 0,
      "BoardingStarted": false,
      "PassengersGenerated": true,
      "TotalTickets": 3,
      "CheckedInCount": 3,
      "TotalBags": 14,
      "BagsLoadedCount": 0
    },
    {
      "Id": 12,
      "FlightNumber": "RO391",
      "OriginName": "Bucharest",
      "DestName": "London",
      "OriginLat": 44.5722,
      "OriginLng": 26.1022,
      "DestLat": 51.47,
      "DestLng": -0.4543,
      "CurrentLat": 44.754939812921236,
      "CurrentLng": 25.39865251502758,
      "Status": "Airborne",
      "TotalTimeHours": 2.338189921826499,
      "DepartureTime": "2026-05-29T20:35:52.1995226",
      "Progress": 0.026492477735108856,
      "AircraftModel": "Boeing 737-800",
      "TakeoffCleared": true,
      "LandingCleared": false,
      "ActualDepartureTime": "2026-05-30T15:46:35.5422595+03:00",
      "ActualArrivalTime": null,
      "HoldingStartTime": null,
      "FuelPercent": 99.77599999999893,
      "EmergencyDeclared": false,
      "ServicingStarted": false,
      "ServicingComplete": false,
      "AssignedGate": "",
      "TotalPassengers": 189,
      "BoardedCount": 0,
      "BoardingStarted": false,
      "PassengersGenerated": true,
      "TotalTickets": 177,
      "CheckedInCount": 0,
      "TotalBags": 192,
      "BagsLoadedCount": 0
    },
    {
      "Id": 19,
      "FlightNumber": "RO3010",
      "OriginName": "Lisbon",
      "DestName": "Warsaw",
      "OriginLat": 38.7742,
      "OriginLng": -9.1342,
      "DestLat": 52.1657,
      "DestLng": 20.9671,
      "CurrentLat": 39.045742869648834,
      "CurrentLng": -8.523828243127326,
      "Status": "Airborne",
      "TotalTimeHours": 3.0548731728826097,
      "DepartureTime": "2026-05-30T08:55:28.5422595",
      "Progress": 0.020277255695689986,
      "AircraftModel": "Airbus A320",
      "TakeoffCleared": true,
      "LandingCleared": false,
      "ActualDepartureTime": "2026-05-30T15:46:35.5422595+03:00",
      "ActualArrivalTime": null,
      "HoldingStartTime": null,
      "FuelPercent": 99.77599999999893,
      "EmergencyDeclared": false,
      "ServicingStarted": false,
      "ServicingComplete": false,
      "AssignedGate": "",
      "TotalPassengers": 168,
      "BoardedCount": 68,
      "BoardingStarted": false,
      "PassengersGenerated": true,
      "TotalTickets": 134,
      "CheckedInCount": 68,
      "TotalBags": 146,
      "BagsLoadedCount": 73
    },
    {
      "Id": 20,
      "FlightNumber": "RO4927",
      "OriginName": "Paris",
      "DestName": "Rome",
      "OriginLat": 49.0097,
      "OriginLng": 2.5479,
      "DestLat": 41.7999,
      "DestLng": 12.2462,
      "CurrentLat": 48.64462342425156,
      "CurrentLng": 3.038984656243038,
      "Status": "Airborne",
      "TotalTimeHours": 1.22332432487616,
      "DepartureTime": "2026-05-30T09:09:28.5422595",
      "Progress": 0.05063615852706536,
      "AircraftModel": "Airbus A320",
      "TakeoffCleared": true,
      "LandingCleared": false,
      "ActualDepartureTime": "2026-05-30T15:46:35.5422595+03:00",
      "ActualArrivalTime": null,
      "HoldingStartTime": null,
      "FuelPercent": 99.77599999999893,
      "EmergencyDeclared": false,
      "ServicingStarted": false,
      "ServicingComplete": false,
      "AssignedGate": "",
      "TotalPassengers": 174,
      "BoardedCount": 70,
      "BoardingStarted": false,
      "PassengersGenerated": true,
      "TotalTickets": 138,
      "CheckedInCount": 70,
      "TotalBags": 125,
      "BagsLoadedCount": 63
    },
    {
      "Id": 22,
      "FlightNumber": "RO4883",
      "OriginName": "Paris",
      "DestName": "Copenhagen",
      "OriginLat": 49.0097,
      "OriginLng": 2.5479,
      "DestLat": 55.618,
      "DestLng": 12.656,
      "CurrentLat": 49.37661870839296,
      "CurrentLng": 3.109141317177923,
      "Status": "Airborne",
      "TotalTimeHours": 1.1156353242795758,
      "DepartureTime": "2026-05-30T10:03:28.5422595",
      "Progress": 0.0555239181624562,
      "AircraftModel": "Airbus A320",
      "TakeoffCleared": true,
      "LandingCleared": false,
      "ActualDepartureTime": "2026-05-30T15:46:35.5422595+03:00",
      "ActualArrivalTime": null,
      "HoldingStartTime": null,
      "FuelPercent": 99.77599999999893,
      "EmergencyDeclared": false,
      "ServicingStarted": false,
      "ServicingComplete": false,
      "AssignedGate": "",
      "TotalPassengers": 168,
      "BoardedCount": 76,
      "BoardingStarted": false,
      "PassengersGenerated": true,
      "TotalTickets": 159,
      "CheckedInCount": 159,
      "TotalBags": 165,
      "BagsLoadedCount": 165
    },
    {
      "Id": 23,
      "FlightNumber": "RO9764",
      "OriginName": "London",
      "DestName": "Frankfurt",
      "OriginLat": 51.47,
      "OriginLng": -0.4543,
      "DestLat": 50.0379,
      "DestLng": 8.5622,
      "CurrentLat": 51.34782863360939,
      "CurrentLng": 0.31489078630047623,
      "Status": "Airborne",
      "TotalTimeHours": 0.7261164502757742,
      "DepartureTime": "2026-05-30T09:08:28.5422595",
      "Progress": 0.08530924264409429,
      "AircraftModel": "Airbus A321",
      "TakeoffCleared": true,
      "LandingCleared": false,
      "ActualDepartureTime": "2026-05-30T15:46:35.5422595+03:00",
      "ActualArrivalTime": null,
      "HoldingStartTime": null,
      "FuelPercent": 99.77599999999893,
      "EmergencyDeclared": false,
      "ServicingStarted": false,
      "ServicingComplete": false,
      "AssignedGate": "",
      "TotalPassengers": 212,
      "BoardedCount": 103,
      "BoardingStarted": false,
      "PassengersGenerated": true,
      "TotalTickets": 201,
      "CheckedInCount": 103,
      "TotalBags": 202,
      "BagsLoadedCount": 103
    },
    {
      "Id": 24,
      "FlightNumber": "RO8015",
      "OriginName": "Copenhagen",
      "DestName": "Munich",
      "OriginLat": 55.618,
      "OriginLng": 12.656,
      "DestLat": 48.3538,
      "DestLng": 11.7861,
      "CurrentLat": 55.11797541801154,
      "CurrentLng": 12.596121226856122,
      "Status": "Airborne",
      "TotalTimeHours": 0.89990942354053,
      "DepartureTime": "2026-05-30T07:36:28.5422595",
      "Progress": 0.06883408799158396,
      "AircraftModel": "Boeing 737-700",
      "TakeoffCleared": true,
      "LandingCleared": false,
      "ActualDepartureTime": "2026-05-30T15:46:35.5422595+03:00",
      "ActualArrivalTime": null,
      "HoldingStartTime": null,
      "FuelPercent": 99.77599999999893,
      "EmergencyDeclared": false,
      "ServicingStarted": false,
      "ServicingComplete": false,
      "AssignedGate": "",
      "TotalPassengers": 148,
      "BoardedCount": 74,
      "BoardingStarted": false,
      "PassengersGenerated": true,
      "TotalTickets": 126,
      "CheckedInCount": 126,
      "TotalBags": 128,
      "BagsLoadedCount": 128
    },
    {
      "Id": 26,
      "FlightNumber": "RO8048",
      "OriginName": "Zurich",
      "DestName": "Vienna",
      "OriginLat": 47.4647,
      "OriginLng": 8.5492,
      "DestLat": 48.1103,
      "DestLng": 16.5697,
      "CurrentLat": 47.52436735758539,
      "CurrentLng": 9.290467102716294,
      "Status": "Airborne",
      "TotalTimeHours": 0.670238048938236,
      "DepartureTime": "2026-05-30T06:56:20.5422595",
      "Progress": 0.09242155759819115,
      "AircraftModel": "Boeing 737-700",
      "TakeoffCleared": true,
      "LandingCleared": false,
      "ActualDepartureTime": "2026-05-30T15:46:35.5422595+03:00",
      "ActualArrivalTime": null,
      "HoldingStartTime": null,
      "FuelPercent": 99.77599999999893,
      "EmergencyDeclared": false,
      "ServicingStarted": false,
      "ServicingComplete": false,
      "AssignedGate": "",
      "TotalPassengers": 148,
      "BoardedCount": 54,
      "BoardingStarted": false,
      "PassengersGenerated": true,
      "TotalTickets": 108,
      "CheckedInCount": 54,
      "TotalBags": 113,
      "BagsLoadedCount": 57
    },
    {
      "Id": 28,
      "FlightNumber": "RO7711",
      "OriginName": "Athens",
      "DestName": "Madrid",
      "OriginLat": 37.9364,
      "OriginLng": 23.9445,
      "DestLat": 40.4983,
      "DestLng": -3.5676,
      "CurrentLat": 37.99647541095637,
      "CurrentLng": 23.2993535408202,
      "Status": "Airborne",
      "TotalTimeHours": 2.6416044384195154,
      "DepartureTime": "2026-05-30T08:29:20.5422595",
      "Progress": 0.023449553439388565,
      "AircraftModel": "Boeing 737-800",
      "TakeoffCleared": true,
      "LandingCleared": false,
      "ActualDepartureTime": "2026-05-30T15:46:35.5422595+03:00",
      "ActualArrivalTime": null,
      "HoldingStartTime": null,
      "FuelPercent": 99.77599999999893,
      "EmergencyDeclared": false,
      "ServicingStarted": false,
      "ServicingComplete": false,
      "AssignedGate": "",
      "TotalPassengers": 189,
      "BoardedCount": 41,
      "BoardingStarted": false,
      "PassengersGenerated": true,
      "TotalTickets": 137,
      "CheckedInCount": 70,
      "TotalBags": 141,
      "BagsLoadedCount": 71
    },
    {
      "Id": 29,
      "FlightNumber": "RO8818",
      "OriginName": "Rome",
      "DestName": "Athens",
      "OriginLat": 41.7999,
      "OriginLng": 12.2462,
      "DestLat": 37.9364,
      "DestLng": 23.9445,
      "CurrentLat": 41.601511156865165,
      "CurrentLng": 12.846902006896407,
      "Status": "Airborne",
      "TotalTimeHours": 1.2063297377486721,
      "DepartureTime": "2026-05-30T04:34:20.5422595",
      "Progress": 0.05134951291182544,
      "AircraftModel": "Boeing 737-700",
      "TakeoffCleared": true,
      "LandingCleared": false,
      "ActualDepartureTime": "2026-05-30T15:46:35.5422595+03:00",
      "ActualArrivalTime": null,
      "HoldingStartTime": null,
      "FuelPercent": 99.77599999999893,
      "EmergencyDeclared": false,
      "ServicingStarted": false,
      "ServicingComplete": false,
      "AssignedGate": "",
      "TotalPassengers": 148,
      "BoardedCount": 37,
      "BoardingStarted": false,
      "PassengersGenerated": true,
      "TotalTickets": 150,
      "CheckedInCount": 77,
      "TotalBags": 131,
      "BagsLoadedCount": 66
    },
    {
      "Id": 31,
      "FlightNumber": "RO8035",
      "OriginName": "London",
      "DestName": "Paris",
      "OriginLat": 51.47,
      "OriginLng": -0.4543,
      "DestLat": 49.0097,
      "DestLng": 2.5479,
      "CurrentLat": 51.07468134105004,
      "CurrentLng": 0.028090634434648043,
      "Status": "Airborne",
      "TotalTimeHours": 0.385516628715364,
      "DepartureTime": "2026-05-30T11:54:59.5422595",
      "Progress": 0.16067904684386386,
      "AircraftModel": "Boeing 737-900",
      "TakeoffCleared": true,
      "LandingCleared": false,
      "ActualDepartureTime": "2026-05-30T15:46:35.5422595+03:00",
      "ActualArrivalTime": null,
      "HoldingStartTime": null,
      "FuelPercent": 99.77599999999893,
      "EmergencyDeclared": false,
      "ServicingStarted": false,
      "ServicingComplete": false,
      "AssignedGate": "",
      "TotalPassengers": 204,
      "BoardedCount": 56,
      "BoardingStarted": false,
      "PassengersGenerated": true,
      "TotalTickets": 188,
      "CheckedInCount": 96,
      "TotalBags": 186,
      "BagsLoadedCount": 95
    },
    {
      "Id": 36,
      "FlightNumber": "RO358",
      "OriginName": "Frankfurt",
      "DestName": "Berlin",
      "OriginLat": 50.0379,
      "OriginLng": 8.5622,
      "DestLat": 52.3667,
      "DestLng": 13.5033,
      "CurrentLat": 50.3393996824384,
      "CurrentLng": 9.201902885991231,
      "Status": "Airborne",
      "TotalTimeHours": 0.47846226919889273,
      "DepartureTime": "2026-05-30T11:00:59.5422595",
      "Progress": 0.12946568294331828,
      "AircraftModel": "Airbus A321",
      "TakeoffCleared": true,
      "LandingCleared": false,
      "ActualDepartureTime": "2026-05-30T15:46:35.5422595+03:00",
      "ActualArrivalTime": null,
      "HoldingStartTime": null,
      "FuelPercent": 99.77599999999893,
      "EmergencyDeclared": false,
      "ServicingStarted": false,
      "ServicingComplete": false,
      "AssignedGate": "",
      "TotalPassengers": 212,
      "BoardedCount": 45,
      "BoardingStarted": false,
      "PassengersGenerated": true,
      "TotalTickets": 155,
      "CheckedInCount": 79,
      "TotalBags": 160,
      "BagsLoadedCount": 81
    }
  ]
}